[
    {
        "name": "Valley Plaza",
        "city": "Bakersfield",
        "state": "California",
        "id": 1001,
        "coordinates": {
            "longitude": -119.032662,
            "latitude": 35.337895
        },
        "imageName": "applevalleyplaza",
        "address": "2701 Ming Avenue\nBakersfield, CA 93304\n(661) 396-3480"
    },
    {
        "name": "4th Street",
        "city": "Berkeley",
        "state": "California",
        "id": 1002,
        "coordinates": {
            "longitude": -122.300234,
            "latitude": 37.869310
        },
        "imageName": "apple4thstreet",
        "address": "1823 4th Street\nBerkeley, CA 94710\n(510) 898-3341"
    },
    {
        "name": "Brea Mall",
        "city": "Brea",
        "state": "California",
        "id": 1003,
        "coordinates": {
            "longitude": -117.886706,
            "latitude": 33.915829
        },
        "imageName": "applebreamall",
        "address": "1016C Brea Mall\nBrea, CA 92821\n(714) 989-5550"
    },
    {
        "name": "Burlingame",
        "city": "Burlingame",
        "state": "California",
        "id": 1004,
        "coordinates": {
            "longitude": -122.347080,
            "latitude": 37.578270
        },
        "imageName": "appleburlingame",
        "address": "1301 Burlingame Avenue\nBurlingame, CA 94010\n(650) 645-8930"
    },
    {
        "name": "Topanga",
        "city": "Canoga Park",
        "state": "California",
        "id": 1005,
        "coordinates": {
            "longitude": -118.603203,
            "latitude": 34.190336
        },
        "imageName": "appletopanga",
        "address": "6600 Topanga Canyon Boulevard\nCanoga Park, CA 91303\n(818) 577-1800"
    },
    {
        "name": "Carlsbad",
        "city": "Carlsbad",
        "state": "California",
        "id": 1006,
        "coordinates": {
            "longitude": -117.265309,
            "latitude": 33.071305
        },
        "imageName": "applecarlsbad",
        "address": "1923 Calle Barcelona\nCarlsbad, CA 92009\n(760) 697-9800"
    },
    {
        "name": "Los Cerritos",
        "city": "Cerritos",
        "state": "California",
        "id": 1007,
        "coordinates": {
            "longitude": -118.093947,
            "latitude": 33.862468
        },
        "imageName": "appleloscerritos",
        "address": "242 Los Cerritos Center\nCerritos, CA 90703\n(562) 356-1555"
    },
    {
        "name": "Otay Ranch",
        "city": "Chula Vista",
        "state": "California",
        "id": 1008,
        "coordinates": {
            "longitude": -116.966665,
            "latitude": 32.624043
        },
        "imageName": "appleotayranch",
        "address": "2015 Birch Road\nChula Vista, CA 91915\n(619) 205-6400"
    },
    {
        "name": "Corte Madera",
        "city": "Corte Madera",
        "state": "California",
        "id": 1009,
        "coordinates": {
            "longitude": -122.514235,
            "latitude": 37.928635
        },
        "imageName": "applecortemadera",
        "address": "1520 Redwood Highway\nCorte Madera, CA 94925\n(415) 413-9120"
    },
    {
        "name": "South Coast Plaza",
        "city": "Costa Mesa",
        "state": "California",
        "id": 1010,
        "coordinates": {
            "longitude": -117.893193,
            "latitude": 33.692076
        },
        "imageName": "applesouthcoastplaza",
        "address": ""
    },
    {
        "name": "Infinite Loop",
        "city": "Cupertino",
        "state": "California",
        "id": 1011,
        "coordinates": {
            "longitude": -122.030503,
            "latitude": 37.331423
        },
        "imageName": "infiniteloop",
        "address": "One Infinite Loop\nCupertino, CA 95014\n(408) 606-5775"
    },
    {
        "name": "Apple Park Visitor Center",
        "city": "Cupertino",
        "state": "California",
        "id": 1012,
        "coordinates": {
            "longitude": -122.005354,
            "latitude": 37.332835
        },
        "imageName": "appleparkvisitorcenter",
        "address": "10600 North Tantau Avenue\nCupertino, CA 95014\n(408) 961-1560"
    }
    
    
    
    
    
    
]
